[{"name":"Teretana 1","locationType":"GYM","content":[],"status":false,"location":{"longitude":25.0,"latitude":36.0,"address":{"street":"Šekspirova","number":86,"town":"Novi Sad","zipcode":21000}},"logo":null,"averageGrade":0.0,"startWorkingHour":null,"endWorkingHour":null,"gradesCounter":0},{"name":"Teretana 3","locationType":"GYM","content":[{"oldName":"Dobar trening 1","name":"Dobar trening 1","type":"GROUPTRAINING","image":null,"description":"Bas je dobar","duration":60},{"oldName":"Bolji trening 11","name":"Bolji trening 11","type":"GROUPTRAINING","image":null,"description":"I dobar je dobar ali ovaj je bolji","duration":90}],"status":true,"location":{"longitude":65.0,"latitude":42.0,"address":{"street":"Patrijarha Pavla","number":21,"town":"Novi Sad","zipcode":21000}},"logo":null,"averageGrade":0.0,"startWorkingHour":null,"endWorkingHour":null,"gradesCounter":0},{"name":"Novi bazen","locationType":"GYM","content":[],"status":false,"location":{"longitude":3.0,"latitude":8.0,"address":{"street":"Miloša Crnjanskog","number":5,"town":"Novi Sad","zipcode":21000}},"logo":null,"averageGrade":0.0,"startWorkingHour":null,"endWorkingHour":null,"gradesCounter":0},{"name":"Bazen 2","locationType":"POOL","content":[],"status":false,"location":{"longitude":5.0,"latitude":6.0,"address":{"street":"Miloša Crnjanskog","number":5,"town":"Novi Sad","zipcode":21000}},"logo":null,"averageGrade":0.0,"startWorkingHour":"08:23","endWorkingHour":"08:25","gradesCounter":0}]